{   "coordenadas0":
        {
            "longitud": "-9.4892611",
            "latitud": "43.9434760"
        },
    "coordenadas1":
        {
            "longitud": "4.8775609",
            "latitud": "35.0625652"
        },
    "municipios": [
        {
            "nombre": "Adra",
            "longitud": "-3.022522",
            "latitud": "36.748071",
            "poblacion": "24373"
        },
        {
            "nombre": "Almería",
            "longitud": "-2.467922",
            "latitud": "36.840164",
            "poblacion": "188810"
        },
        {
            "nombre": "Níjar",
            "longitud": "-2.206510",
            "latitud": "36.965761",
            "poblacion": "26516"
        },
        {
            "nombre": "Roquetas de Mar",
            "longitud": "-2.614935",
            "latitud": "36.764274",
            "poblacion": "82665"
        },
        {
            "nombre": "Vícar",
            "longitud": "-2.642515",
            "latitud": "36.831453",
            "poblacion": "22853"
        },
        {
            "nombre": "Algeciras",
            "longitud": "-5.447698",
            "latitud": "36.129780",
            "poblacion": "116209"
        },
        {
            "nombre": "Arcos de la Frontera",
            "longitud": "-5.812395",
            "latitud": "36.750779",
            "poblacion": "31210"
        },
        {
            "nombre": "Barbate",
            "longitud": "-5.918903",
            "latitud": "36.192816",
            "poblacion": "22912"
        },
        {
            "nombre": "Cádiz",
            "longitud": "-6.292657",
            "latitud": "36.529688",
            "poblacion": "126766"
        },
        {
            "nombre": "Chiclana de la Frontera",
            "longitud": "-6.149412",
            "latitud": "36.419153",
            "poblacion": "77293"
        },
        {
            "nombre": "Conil de la Frontera",
            "longitud": "-6.088436",
            "latitud": "36.276751",
            "poblacion": "20984"
        },
        {
            "nombre": "Jerez de la Frontera",
            "longitud": "-6.137173",
            "latitud": "36.686562",
            "poblacion": "207532"
        },
        {
            "nombre": "Puerto Real",
            "longitud": "-6.191896",
            "latitud": "36.529122",
            "poblacion": "40183"
        },
        {
            "nombre": "Rota",
            "longitud": "-6.358202",
            "latitud": "36.616984",
            "poblacion": "28516"
        },
        {
            "nombre": "San Fernando",
            "longitud": "-6.196676",
            "latitud": "36.465690",
            "poblacion": "96366"
        },
        {
            "nombre": "San Roque",
            "longitud": "-5.384572",
            "latitud": "36.209748",
            "poblacion": "29249"
        },
        {
            "nombre": "Sanlúcar de Barrameda",
            "longitud": "-6.354198",
            "latitud": "36.778821",
            "poblacion": "65805"
        },
        {
            "nombre": "Baena",
            "longitud": "-4.326090",
            "latitud": "37.614413",
            "poblacion": "20915"
        },
        {
            "nombre": "Cabra",
            "longitud": "-4.425931",
            "latitud": "37.474366",
            "poblacion": "21352"
        },
        {
            "nombre": "Córdoba",
            "longitud": "-4.779152",
            "latitud": "37.884727",
            "poblacion": "328428"
        },
        {
            "nombre": "Lucena",
            "longitud": "-4.485598",
            "latitud": "37.408729",
            "poblacion": "42248"
        },
        {
            "nombre": "Montilla",
            "longitud": "-4.638313",
            "latitud": "37.589630",
            "poblacion": "23840"
        },
        {
            "nombre": "Palma del Río",
            "longitud": "-5.283767",
            "latitud": "37.701635",
            "poblacion": "21588"
        },
        {
            "nombre": "Priego de Córdoba",
            "longitud": "-4.194839",
            "latitud": "37.438897",
            "poblacion": "23513"
        },
        {
            "nombre": "Puente Genil",
            "longitud": "-4.770465",
            "latitud": "37.390507",
            "poblacion": "30033"
        },
        {
            "nombre": "Almuñécar",
            "longitud": "-3.690736",
            "latitud": "36.734540",
            "poblacion": "27696"
        },
        {
            "nombre": "Armilla",
            "longitud": "-3.617981",
            "latitud": "37.140103",
            "poblacion": "21380"
        },
        {
            "nombre": "Baza",
            "longitud": "-2.774473",
            "latitud": "37.490651",
            "poblacion": "23359"
        },
        {
            "nombre": "Granada",
            "longitud": "-3.597929",
            "latitud": "37.176487",
            "poblacion": "234325"
        },
        {
            "nombre": "Guadix",
            "longitud": "-3.134583",
            "latitud": "37.300396",
            "poblacion": "20395"
        },
        {
            "nombre": "Loja",
            "longitud": "-4.151471",
            "latitud": "37.168841",
            "poblacion": "21574"
        },
        {
            "nombre": "Maracena",
            "longitud": "-3.636805",
            "latitud": "37.205677",
            "poblacion": "20815"
        },
        {
            "nombre": "Motril",
            "longitud": "-3.516718",
            "latitud": "36.744669",
            "poblacion": "60279"
        },
        {
            "nombre": "Almonte",
            "longitud": "-6.517240",
            "latitud": "37.262535",
            "poblacion": "21782"
        },
        {
            "nombre": "Ayamonte",
            "longitud": "-7.409819",
            "latitud": "37.214661",
            "poblacion": "20334"
        },
        {
            "nombre": "Huelva",
            "longitud": "-6.949522",
            "latitud": "37.257153",
            "poblacion": "148806"
        },
        {
            "nombre": "Isla Cristina",
            "longitud": "-7.325247",
            "latitud": "37.199431",
            "poblacion": "21324"
        },
        {
            "nombre": "Lepe",
            "longitud": "-7.203348",
            "latitud": "37.254323",
            "poblacion": "25886"
        },
        {
            "nombre": "Alcalá la Real",
            "longitud": "-3.925078",
            "latitud": "37.463585",
            "poblacion": "22783"
        },
        {
            "nombre": "Andújar",
            "longitud": "-4.054392",
            "latitud": "38.036750",
            "poblacion": "39111"
        },
        {
            "nombre": "Jaén",
            "longitud": "-3.789518",
            "latitud": "37.765739",
            "poblacion": "116557"
        },
        {
            "nombre": "Linares",
            "longitud": "-3.635845",
            "latitud": "38.093620",
            "poblacion": "61338"
        },
        {
            "nombre": "Martos",
            "longitud": "-3.966258",
            "latitud": "37.722778",
            "poblacion": "24655"
        },
        {
            "nombre": "Úbeda",
            "longitud": "-3.368519",
            "latitud": "38.008088",
            "poblacion": "35649"
        },
        {
            "nombre": "Alhaurín de la Torre",
            "longitud": "-4.552967",
            "latitud": "36.668357",
            "poblacion": "35114"
        },
        {
            "nombre": "Alhaurín el Grande",
            "longitud": "-4.691447",
            "latitud": "36.641856",
            "poblacion": "23319"
        },
        {
            "nombre": "Antequera",
            "longitud": "-4.562885",
            "latitud": "37.019379",
            "poblacion": "45168"
        },
        {
            "nombre": "Benalmádena",
            "longitud": "-4.573368",
            "latitud": "36.595234",
            "poblacion": "58854"
        },
        {
            "nombre": "Cártama",
            "longitud": "-4.630741",
            "latitud": "36.711313",
            "poblacion": "21313"
        },
        {
            "nombre": "Coín",
            "longitud": "-4.760343",
            "latitud": "36.658707",
            "poblacion": "21866"
        },
        {
            "nombre": "Estepona",
            "longitud": "-5.144903",
            "latitud": "36.424775",
            "poblacion": "65592"
        },
        {
            "nombre": "Fuengirola",
            "longitud": "-4.624353",
            "latitud": "36.539004",
            "poblacion": "71482"
        },
        {
            "nombre": "Málaga",
            "longitud": "-4.420016",
            "latitud": "36.719648",
            "poblacion": "568305"
        },
        {
            "nombre": "Marbella",
            "longitud": "-4.886352",
            "latitud": "36.509937",
            "poblacion": "134623"
        },
        {
            "nombre": "Mijas",
            "longitud": "-4.637619",
            "latitud": "36.595699",
            "poblacion": "73787"
        },
        {
            "nombre": "Nerja",
            "longitud": "-3.876649",
            "latitud": "36.745030",
            "poblacion": "21811"
        },
        {
            "nombre": "Rincón de la Victoria",
            "longitud": "-4.275504",
            "latitud": "36.715666",
            "poblacion": "38666"
        },
        {
            "nombre": "Ronda",
            "longitud": "-5.166412",
            "latitud": "36.741962",
            "poblacion": "36827"
        },
        {
            "nombre": "Torremolinos",
            "longitud": "-4.500273",
            "latitud": "36.621787",
            "poblacion": "65448"
        },
        {
            "nombre": "Vélez-Málaga",
            "longitud": "-4.100675",
            "latitud": "36.778644",
            "poblacion": "74190"
        },
        {
            "nombre": "Alcalá de Guadaíra",
            "longitud": "-5.844032",
            "latitud": "37.338327",
            "poblacion": "70155"
        },
        {
            "nombre": "Camas",
            "longitud": "-6.032911",
            "latitud": "37.400873",
            "poblacion": "26015"
        },
        {
            "nombre": "Carmona",
            "longitud": "-5.642328",
            "latitud": "37.471024",
            "poblacion": "28344"
        },
        {
            "nombre": "Coria del Río",
            "longitud": "-6.051814",
            "latitud": "37.285059",
            "poblacion": "28100"
        },
        {
            "nombre": "Dos Hermanas",
            "longitud": "-5.922242",
            "latitud": "37.283175",
            "poblacion": "122943"
        },
        {
            "nombre": "Écija",
            "longitud": "-5.079953",
            "latitud": "37.540927",
            "poblacion": "40400"
        },
        {
            "nombre": "Lebrija",
            "longitud": "-6.078367",
            "latitud": "36.919512",
            "poblacion": "26434"
        },
        {
            "nombre": "Mairena del Alcor",
            "longitud": "-5.747595",
            "latitud": "37.373157",
            "poblacion": "20510"
        },
        {
            "nombre": "Mairena del Aljarafe",
            "longitud": "-6.065354",
            "latitud": "37.344490",
            "poblacion": "40700"
        },
        {
            "nombre": "Morón de la Frontera",
            "longitud": "-5.451869",
            "latitud": "37.122296",
            "poblacion": "28455"
        },
        {
            "nombre": "San Juan de Aznalfarache",
            "longitud": "-6.035451",
            "latitud": "37.358375",
            "poblacion": "20779"
        },
        {
            "nombre": "Sevilla",
            "longitud": "-5.996295",
            "latitud": "37.382640",
            "poblacion": "703206"
        },
        {
            "nombre": "Tomares",
            "longitud": "-6.049910",
            "latitud": "37.378967",
            "poblacion": "22772"
        },
        {
            "nombre": "Utrera",
            "longitud": "-5.781507",
            "latitud": "37.181419",
            "poblacion": "50665"
        },
        {
            "nombre": "Huesca",
            "longitud": "-0.408898",
            "latitud": "42.140102",
            "poblacion": "52059"
        },
        {
            "nombre": "Teruel",
            "longitud": "-1.106910",
            "latitud": "40.344110",
            "poblacion": "35396"
        },
        {
            "nombre": "Calatayud",
            "longitud": "-1.647009",
            "latitud": "41.354322",
            "poblacion": "21933"
        },
        {
            "nombre": "Zaragoza",
            "longitud": "-0.876538",
            "latitud": "41.656287",
            "poblacion": "674317"
        },
        {
            "nombre": "Avilés",
            "longitud": "-5.927617",
            "latitud": "43.555774",
            "poblacion": "84242"
        },
        {
            "nombre": "Castrillón",
            "longitud": "-5.966667",
            "latitud": "43.550000",
            "poblacion": "22894"
        },
        {
            "nombre": "Gijón",
            "longitud": "-5.661926",
            "latitud": "43.545261",
            "poblacion": "277554"
        },
        {
            "nombre": "Langreo",
            "longitud": "-5.682542",
            "latitud": "43.296361",
            "poblacion": "45565"
        },
        {
            "nombre": "Mieres",
            "longitud": "-5.766667",
            "latitud": "43.250000",
            "poblacion": "44070"
        },
        {
            "nombre": "Oviedo",
            "longitud": "-5.844781",
            "latitud": "43.360299",
            "poblacion": "224005"
        },
        {
            "nombre": "Siero",
            "longitud": "-5.650000",
            "latitud": "43.383333",
            "poblacion": "51181"
        },
        {
            "nombre": "Calvià",
            "longitud": "2.507877",
            "latitud": "39.527328",
            "poblacion": "51774"
        },
        {
            "nombre": "Ciutadella de Menorca",
            "longitud": "3.837485",
            "latitud": "39.992971",
            "poblacion": "29160"
        },
        {
            "nombre": "Eivissa",
            "longitud": "1.424630",
            "latitud": "38.908967",
            "poblacion": "48684"
        },
        {
            "nombre": "Inca",
            "longitud": "2.913219",
            "latitud": "39.722298",
            "poblacion": "29308"
        },
        {
            "nombre": "Llucmajor",
            "longitud": "2.754333",
            "latitud": "39.500296",
            "poblacion": "36078"
        },
        {
            "nombre": "Manacor",
            "longitud": "3.261650",
            "latitud": "39.457024",
            "poblacion": "40548"
        },
        {
            "nombre": "Maó",
            "longitud": "4.210592",
            "latitud": "40.016822",
            "poblacion": "29125"
        },
        {
            "nombre": "Marratxí",
            "longitud": "2.707827",
            "latitud": "39.607494",
            "poblacion": "33348"
        },
        {
            "nombre": "Palma",
            "longitud": "2.616563",
            "latitud": "39.571920",
            "poblacion": "401270"
        },
        {
            "nombre": "Sant Antoni de Portmany",
            "longitud": "1.292859",
            "latitud": "38.941537",
            "poblacion": "21852"
        },
        {
            "nombre": "Sant Josep de sa Talaia",
            "longitud": "1.292859",
            "latitud": "38.941537",
            "poblacion": "22171"
        },
        {
            "nombre": "Santa Eulalia del Río",
            "longitud": "1.424630",
            "latitud": "38.908967",
            "poblacion": "31314"
        },
        {
            "nombre": "Agüimes",
            "longitud": "-15.445644",
            "latitud": "27.904110",
            "poblacion": "28924"
        },
        {
            "nombre": "Arrecife",
            "longitud": "-13.547601",
            "latitud": "28.959506",
            "poblacion": "59127"
        },
        {
            "nombre": "Arucas",
            "longitud": "-15.524735",
            "latitud": "28.119266",
            "poblacion": "36259"
        },
        {
            "nombre": "Gáldar",
            "longitud": "-15.650356",
            "latitud": "28.144045",
            "poblacion": "24405"
        },
        {
            "nombre": "Ingenio",
            "longitud": "-15.442462",
            "latitud": "27.920473",
            "poblacion": "29319"
        },
        {
            "nombre": "Mogán",
            "longitud": "-15.723984",
            "latitud": "27.883697",
            "poblacion": "21690"
        },
        {
            "nombre": "Pájara",
            "longitud": "-14.107614",
            "latitud": "28.350593",
            "poblacion": "20821"
        },
        {
            "nombre": "Puerto del Rosario",
            "longitud": "-13.862207",
            "latitud": "28.496503",
            "poblacion": "35667"
        },
        {
            "nombre": "San Bartolomé de Tirajana",
            "longitud": "-15.573002",
            "latitud": "27.924613",
            "poblacion": "52161"
        },
        {
            "nombre": "Santa Lucía de Tirajana",
            "longitud": "-15.541236",
            "latitud": "27.912724",
            "poblacion": "63637"
        },
        {
            "nombre": "Telde",
            "longitud": "-15.417894",
            "latitud": "27.996045",
            "poblacion": "100015"
        },
        {
            "nombre": "Adeje",
            "longitud": "-16.724640",
            "latitud": "28.121846",
            "poblacion": "43204"
        },
        {
            "nombre": "Arona",
            "longitud": "-16.680658",
            "latitud": "28.100473",
            "poblacion": "78614"
        },
        {
            "nombre": "Candelaria",
            "longitud": "-16.370127",
            "latitud": "28.352756",
            "poblacion": "24319"
        },
        {
            "nombre": "Granadilla de Abona",
            "longitud": "-16.576909",
            "latitud": "28.120182",
            "poblacion": "39993"
        },
        {
            "nombre": "Guía de Isora",
            "longitud": "-16.779003",
            "latitud": "28.209947",
            "poblacion": "20536"
        },
        {
            "nombre": "Icod de los Vinos",
            "longitud": "-16.718861",
            "latitud": "28.367604",
            "poblacion": "24024"
        },
        {
            "nombre": "Puerto de la Cruz",
            "longitud": "-16.545156",
            "latitud": "28.413393",
            "poblacion": "32219"
        },
        {
            "nombre": "San Cristóbal de La Laguna",
            "longitud": "-16.314776",
            "latitud": "28.488116",
            "poblacion": "150661"
        },
        {
            "nombre": "Santa Cruz de Tenerife",
            "longitud": "-16.254856",
            "latitud": "28.469810",
            "poblacion": "222417"
        },
        {
            "nombre": "Tacoronte",
            "longitud": "-16.411997",
            "latitud": "28.481529",
            "poblacion": "23562"
        },
        {
            "nombre": "Camargo",
            "longitud": "-3.884337",
            "latitud": "43.407098",
            "poblacion": "31404"
        },
        {
            "nombre": "Castro-Urdiales",
            "longitud": "-3.219570",
            "latitud": "43.382775",
            "poblacion": "31670"
        },
        {
            "nombre": "Cieza",
            "longitud": "-4.087500",
            "latitud": "43.222222",
            "poblacion": "35200"
        },
        {
            "nombre": "Piélagos",
            "longitud": "-3.957237",
            "latitud": "43.386570",
            "poblacion": "20081"
        },
        {
            "nombre": "Santander",
            "longitud": "-3.807934",
            "latitud": "43.460960",
            "poblacion": "182700"
        },
        {
            "nombre": "Torrelavega",
            "longitud": "-4.047017",
            "latitud": "43.351455",
            "poblacion": "55947"
        },
        {
            "nombre": "Albacete",
            "longitud": "-1.860070",
            "latitud": "38.997652",
            "poblacion": "169716"
        },
        {
            "nombre": "Almansa",
            "longitud": "-1.097517",
            "latitud": "38.869410",
            "poblacion": "25727"
        },
        {
            "nombre": "Hellín",
            "longitud": "-1.703310",
            "latitud": "38.512162",
            "poblacion": "30976"
        },
        {
            "nombre": "Villarrobledo",
            "longitud": "-2.607643",
            "latitud": "39.267256",
            "poblacion": "26642"
        },
        {
            "nombre": "Alcázar de San Juan",
            "longitud": "-3.210137",
            "latitud": "39.389925",
            "poblacion": "30675"
        },
        {
            "nombre": "Ciudad Real",
            "longitud": "-3.927263",
            "latitud": "38.986096",
            "poblacion": "74014"
        },
        {
            "nombre": "Puertollano",
            "longitud": "-4.112146",
            "latitud": "38.686035",
            "poblacion": "51842"
        },
        {
            "nombre": "Tomelloso",
            "longitud": "-3.020807",
            "latitud": "39.157747",
            "poblacion": "38095"
        },
        {
            "nombre": "Valdepeñas",
            "longitud": "-3.384104",
            "latitud": "38.760529",
            "poblacion": "31147"
        },
        {
            "nombre": "Cuenca",
            "longitud": "-2.134005",
            "latitud": "40.071835",
            "poblacion": "55866"
        },
        {
            "nombre": "Azuqueca de Henares",
            "longitud": "-3.268549",
            "latitud": "40.565027",
            "poblacion": "32744"
        },
        {
            "nombre": "Guadalajara",
            "longitud": "-3.166493",
            "latitud": "40.629816",
            "poblacion": "83039"
        },
        {
            "nombre": "Illescas",
            "longitud": "-3.849206",
            "latitud": "40.124163",
            "poblacion": "21264"
        },
        {
            "nombre": "Talavera de la Reina",
            "longitud": "-4.834432",
            "latitud": "39.959800",
            "poblacion": "88856"
        },
        {
            "nombre": "Toledo",
            "longitud": "-4.024476",
            "latitud": "39.856778",
            "poblacion": "82291"
        },
        {
            "nombre": "Ávila",
            "longitud": "-4.700322",
            "latitud": "40.656423",
            "poblacion": "56855"
        },
        {
            "nombre": "Aranda de Duero",
            "longitud": "-3.686569",
            "latitud": "41.671713",
            "poblacion": "32928"
        },
        {
            "nombre": "Burgos",
            "longitud": "-3.699762",
            "latitud": "42.340892",
            "poblacion": "178966"
        },
        {
            "nombre": "Miranda de Ebro",
            "longitud": "-2.947593",
            "latitud": "42.687345",
            "poblacion": "39264"
        },
        {
            "nombre": "León",
            "longitud": "-5.571752",
            "latitud": "42.599876",
            "poblacion": "134305"
        },
        {
            "nombre": "Ponferrada",
            "longitud": "-6.590833",
            "latitud": "42.546332",
            "poblacion": "68736"
        },
        {
            "nombre": "San Andrés del Rabanedo",
            "longitud": "-5.619492",
            "latitud": "42.611384",
            "poblacion": "30906"
        },
        {
            "nombre": "Palencia",
            "longitud": "-4.531175",
            "latitud": "42.012458",
            "poblacion": "82651"
        },
        {
            "nombre": "Salamanca",
            "longitud": "-5.663025",
            "latitud": "40.964968",
            "poblacion": "155619"
        },
        {
            "nombre": "Segovia",
            "longitud": "-4.119209",
            "latitud": "40.949427",
            "poblacion": "56660"
        },
        {
            "nombre": "Soria",
            "longitud": "-2.464921",
            "latitud": "41.763598",
            "poblacion": "39528"
        },
        {
            "nombre": "Laguna de Duero",
            "longitud": "-4.721730",
            "latitud": "41.583314",
            "poblacion": "21762"
        },
        {
            "nombre": "Medina del Campo",
            "longitud": "-4.921706",
            "latitud": "41.308185",
            "poblacion": "21540"
        },
        {
            "nombre": "Valladolid",
            "longitud": "-4.728381",
            "latitud": "41.652943",
            "poblacion": "317864"
        },
        {
            "nombre": "Zamora",
            "longitud": "-5.743778",
            "latitud": "41.503683",
            "poblacion": "66293"
        },
        {
            "nombre": "Badalona",
            "longitud": "2.247420",
            "latitud": "41.450137",
            "poblacion": "219547"
        },
        {
            "nombre": "Barberà del Vallès",
            "longitud": "2.124723",
            "latitud": "41.515961",
            "poblacion": "31144"
        },
        {
            "nombre": "Barcelona",
            "longitud": "2.169919",
            "latitud": "41.387917",
            "poblacion": "1621537"
        },
        {
            "nombre": "Castellar del Vallès",
            "longitud": "2.085650",
            "latitud": "41.616177",
            "poblacion": "23002"
        },
        {
            "nombre": "Castelldefels",
            "longitud": "1.976775",
            "latitud": "41.280389",
            "poblacion": "62080"
        },
        {
            "nombre": "Cerdanyola del Vallès",
            "longitud": "2.140769",
            "latitud": "41.491370",
            "poblacion": "58747"
        },
        {
            "nombre": "Cornellà de Llobregat",
            "longitud": "2.070433",
            "latitud": "41.355613",
            "poblacion": "86519"
        },
        {
            "nombre": "Esparreguera",
            "longitud": "1.870692",
            "latitud": "41.538889",
            "poblacion": "21855"
        },
        {
            "nombre": "Esplugues de Llobregat",
            "longitud": "2.088085",
            "latitud": "41.377514",
            "poblacion": "46862"
        },
        {
            "nombre": "Gavà",
            "longitud": "2.003213",
            "latitud": "41.303168",
            "poblacion": "45994"
        },
        {
            "nombre": "Granollers",
            "longitud": "2.287789",
            "latitud": "41.608213",
            "poblacion": "60658"
        },
        {
            "nombre": "Igualada",
            "longitud": "1.617193",
            "latitud": "41.578765",
            "poblacion": "38918"
        },
        {
            "nombre": "Manlleu",
            "longitud": "2.284165",
            "latitud": "41.999948",
            "poblacion": "20647"
        },
        {
            "nombre": "Manresa",
            "longitud": "1.823353",
            "latitud": "41.725175",
            "poblacion": "76558"
        },
        {
            "nombre": "Martorell",
            "longitud": "1.927682",
            "latitud": "41.473551",
            "poblacion": "26681"
        },
        {
            "nombre": "Mataró",
            "longitud": "2.445278",
            "latitud": "41.537500",
            "poblacion": "121722"
        },
        {
            "nombre": "Molins de Rei",
            "longitud": "2.015836",
            "latitud": "41.413917",
            "poblacion": "24067"
        },
        {
            "nombre": "Mollet del Vallès",
            "longitud": "2.213529",
            "latitud": "41.540522",
            "poblacion": "52484"
        },
        {
            "nombre": "Montcada i Reixac",
            "longitud": "2.188505",
            "latitud": "41.482310",
            "poblacion": "33453"
        },
        {
            "nombre": "Olesa de Montserrat",
            "longitud": "1.888153",
            "latitud": "41.543401",
            "poblacion": "23301"
        },
        {
            "nombre": "Pineda de Mar",
            "longitud": "2.689454",
            "latitud": "41.627507",
            "poblacion": "26203"
        },
        {
            "nombre": "Premià de Mar",
            "longitud": "2.356536",
            "latitud": "41.489579",
            "poblacion": "27399"
        },
        {
            "nombre": "Ripollet",
            "longitud": "2.155674",
            "latitud": "41.497356",
            "poblacion": "37088"
        },
        {
            "nombre": "Rubí",
            "longitud": "2.031262",
            "latitud": "41.492333",
            "poblacion": "72987"
        },
        {
            "nombre": "Sabadell",
            "longitud": "2.107421",
            "latitud": "41.548620",
            "poblacion": "206493"
        },
        {
            "nombre": "Sant Adrià de Besòs",
            "longitud": "2.218239",
            "latitud": "41.430597",
            "poblacion": "33761"
        },
        {
            "nombre": "Sant Andreu de la Barca",
            "longitud": "1.975935",
            "latitud": "41.447183",
            "poblacion": "26401"
        },
        {
            "nombre": "Sant Boi de Llobregat",
            "longitud": "2.043103",
            "latitud": "41.347384",
            "poblacion": "82428"
        },
        {
            "nombre": "Sant Cugat del Vallès",
            "longitud": "2.082139",
            "latitud": "41.471864",
            "poblacion": "79253"
        },
        {
            "nombre": "Sant Feliu de Llobregat",
            "longitud": "2.045172",
            "latitud": "41.380938",
            "poblacion": "42919"
        },
        {
            "nombre": "Sant Joan Despí",
            "longitud": "2.056065",
            "latitud": "41.367689",
            "poblacion": "32030"
        },
        {
            "nombre": "Sant Pere de Ribes",
            "longitud": "1.775418",
            "latitud": "41.259097",
            "poblacion": "28353"
        },
        {
            "nombre": "Sant Vicenç dels Horts",
            "longitud": "2.009870",
            "latitud": "41.393620",
            "poblacion": "27701"
        },
        {
            "nombre": "Santa Coloma de Gramenet",
            "longitud": "2.208978",
            "latitud": "41.451075",
            "poblacion": "119717"
        },
        {
            "nombre": "Santa Perpètua de Mogoda",
            "longitud": "2.178988",
            "latitud": "41.534864",
            "poblacion": "25048"
        },
        {
            "nombre": "Sitges",
            "longitud": "1.811222",
            "latitud": "41.234782",
            "poblacion": "27668"
        },
        {
            "nombre": "Terrassa",
            "longitud": "2.010440",
            "latitud": "41.560953",
            "poblacion": "210941"
        },
        {
            "nombre": "Vic",
            "longitud": "2.254350",
            "latitud": "41.930291",
            "poblacion": "39844"
        },
        {
            "nombre": "Viladecans",
            "longitud": "2.020199",
            "latitud": "41.316006",
            "poblacion": "63489"
        },
        {
            "nombre": "Vilafranca del Penedès",
            "longitud": "1.699850",
            "latitud": "41.345090",
            "poblacion": "38425"
        },
        {
            "nombre": "Vilanova i la Geltrú",
            "longitud": "1.725568",
            "latitud": "41.224151",
            "poblacion": "65890"
        },
        {
            "nombre": "Blanes",
            "longitud": "2.792096",
            "latitud": "41.674267",
            "poblacion": "40047"
        },
        {
            "nombre": "Figueres",
            "longitud": "2.960840",
            "latitud": "42.267498",
            "poblacion": "43330"
        },
        {
            "nombre": "Girona",
            "longitud": "2.823700",
            "latitud": "41.981796",
            "poblacion": "96188"
        },
        {
            "nombre": "Lloret de Mar",
            "longitud": "2.847584",
            "latitud": "41.698785",
            "poblacion": "39363"
        },
        {
            "nombre": "Mieres",
            "longitud": "2.639244",
            "latitud": "42.127000",
            "poblacion": "44070"
        },
        {
            "nombre": "Olot",
            "longitud": "2.488189",
            "latitud": "42.182110",
            "poblacion": "33524"
        },
        {
            "nombre": "Palafrugell",
            "longitud": "3.163817",
            "latitud": "41.917188",
            "poblacion": "22365"
        },
        {
            "nombre": "Roses",
            "longitud": "3.174805",
            "latitud": "42.262968",
            "poblacion": "20197"
        },
        {
            "nombre": "Salt",
            "longitud": "2.792586",
            "latitud": "41.974159",
            "poblacion": "29985"
        },
        {
            "nombre": "Sant Feliu de Guíxols",
            "longitud": "3.030733",
            "latitud": "41.780581",
            "poblacion": "21977"
        },
        {
            "nombre": "Torrent",
            "longitud": "3.128390",
            "latitud": "41.952457",
            "poblacion": "78543"
        },
        {
            "nombre": "Lleida",
            "longitud": "0.625783",
            "latitud": "41.614152",
            "poblacion": "135919"
        },
        {
            "nombre": "Amposta",
            "longitud": "0.579972",
            "latitud": "40.712312",
            "poblacion": "21240"
        },
        {
            "nombre": "Calafell",
            "longitud": "1.568441",
            "latitud": "41.200558",
            "poblacion": "24265"
        },
        {
            "nombre": "Cambrils",
            "longitud": "1.056419",
            "latitud": "41.067056",
            "poblacion": "31720"
        },
        {
            "nombre": "Reus",
            "longitud": "1.108676",
            "latitud": "41.154818",
            "poblacion": "107118"
        },
        {
            "nombre": "Salou",
            "longitud": "1.144041",
            "latitud": "41.076769",
            "poblacion": "26649"
        },
        {
            "nombre": "Tarragona",
            "longitud": "1.245330",
            "latitud": "41.118663",
            "poblacion": "140323"
        },
        {
            "nombre": "Tortosa",
            "longitud": "0.520997",
            "latitud": "40.811004",
            "poblacion": "35143"
        },
        {
            "nombre": "Valls",
            "longitud": "1.251579",
            "latitud": "41.287276",
            "poblacion": "25092"
        },
        {
            "nombre": "Vila-seca",
            "longitud": "1.145001",
            "latitud": "41.110950",
            "poblacion": "20866"
        },
        {
            "nombre": "Ceuta",
            "longitud": "-5.316195",
            "latitud": "35.888287",
            "poblacion": "78674"
        },
        {
            "nombre": "Alcoy/Alcoi",
            "longitud": "-0.473096",
            "latitud": "38.697628",
            "poblacion": "61552"
        },
        {
            "nombre": "Alicante/Alacant",
            "longitud": "-0.480994",
            "latitud": "38.345210",
            "poblacion": "334757"
        },
        {
            "nombre": "Altea",
            "longitud": "-0.049171",
            "latitud": "38.600316",
            "poblacion": "23780"
        },
        {
            "nombre": "Aspe",
            "longitud": "-0.769414",
            "latitud": "38.348568",
            "poblacion": "20180"
        },
        {
            "nombre": "Benidorm",
            "longitud": "-0.129077",
            "latitud": "38.537043",
            "poblacion": "71034"
        },
        {
            "nombre": "Crevillent",
            "longitud": "-0.803492",
            "latitud": "38.247032",
            "poblacion": "28609"
        },
        {
            "nombre": "Dénia",
            "longitud": "0.108609",
            "latitud": "38.840388",
            "poblacion": "44464"
        },
        {
            "nombre": "Elche/Elx",
            "longitud": "-0.698459",
            "latitud": "38.265500",
            "poblacion": "230112"
        },
        {
            "nombre": "Elda",
            "longitud": "-0.790464",
            "latitud": "38.478034",
            "poblacion": "55168"
        },
        {
            "nombre": "Ibi",
            "longitud": "-0.571352",
            "latitud": "38.625511",
            "poblacion": "24113"
        },
        {
            "nombre": "Jávea/Xàbia",
            "longitud": "0.116629",
            "latitud": "38.795462",
            "poblacion": "31593"
        },
        {
            "nombre": "Mutxamel",
            "longitud": "-0.443241",
            "latitud": "38.412350",
            "poblacion": "22510"
        },
        {
            "nombre": "Novelda",
            "longitud": "-0.765386",
            "latitud": "38.385302",
            "poblacion": "27135"
        },
        {
            "nombre": "Orihuela",
            "longitud": "-0.944783",
            "latitud": "38.083949",
            "poblacion": "86164"
        },
        {
            "nombre": "Petrer",
            "longitud": "-0.774252",
            "latitud": "38.477439",
            "poblacion": "34523"
        },
        {
            "nombre": "Pilar de la Horadada",
            "longitud": "-0.792508",
            "latitud": "37.865383",
            "poblacion": "22050"
        },
        {
            "nombre": "Rojales",
            "longitud": "-0.724255",
            "latitud": "38.088326",
            "poblacion": "20510"
        },
        {
            "nombre": "San Vicente del Raspeig/Sant Vicent del Raspeig",
            "longitud": "-0.524928",
            "latitud": "38.396093",
            "poblacion": "53126"
        },
        {
            "nombre": "Sant Joan d'Alacant",
            "longitud": "-0.434533",
            "latitud": "38.398169",
            "poblacion": "21939"
        },
        {
            "nombre": "Santa Pola",
            "longitud": "-0.555207",
            "latitud": "38.192295",
            "poblacion": "31760"
        },
        {
            "nombre": "Torrevieja",
            "longitud": "-0.683227",
            "latitud": "37.977471",
            "poblacion": "101792"
        },
        {
            "nombre": "Villena",
            "longitud": "-0.866139",
            "latitud": "38.636346",
            "poblacion": "35222"
        },
        {
            "nombre": "Almazora/Almassora",
            "longitud": "-0.063161",
            "latitud": "39.945388",
            "poblacion": "24963"
        },
        {
            "nombre": "Benicarló",
            "longitud": "0.423102",
            "latitud": "40.418705",
            "poblacion": "26655"
        },
        {
            "nombre": "Borriana/Burriana",
            "longitud": "-0.083694",
            "latitud": "39.889871",
            "poblacion": "34565"
        },
        {
            "nombre": "Castellón de la Plana/Castelló de la Plana",
            "longitud": "0.025800",
            "latitud": "39.999199",
            "poblacion": "180005"
        },
        {
            "nombre": "Onda",
            "longitud": "-0.262645",
            "latitud": "39.965300",
            "poblacion": "25691"
        },
        {
            "nombre": "Vila-real",
            "longitud": "-0.101829",
            "latitud": "39.938354",
            "poblacion": "51205"
        },
        {
            "nombre": "Vinaròs",
            "longitud": "0.474744",
            "latitud": "40.471000",
            "poblacion": "28273"
        },
        {
            "nombre": "Alaquàs",
            "longitud": "-0.461068",
            "latitud": "39.457079",
            "poblacion": "30392"
        },
        {
            "nombre": "Alboraya",
            "longitud": "-0.349783",
            "latitud": "39.499348",
            "poblacion": "22405"
        },
        {
            "nombre": "Aldaia",
            "longitud": "-0.461358",
            "latitud": "39.465052",
            "poblacion": "29914"
        },
        {
            "nombre": "Alfafar",
            "longitud": "-0.389872",
            "latitud": "39.423232",
            "poblacion": "20853"
        },
        {
            "nombre": "Algemesí",
            "longitud": "-0.434758",
            "latitud": "39.193868",
            "poblacion": "28308"
        },
        {
            "nombre": "Alzira",
            "longitud": "-0.440464",
            "latitud": "39.151590",
            "poblacion": "44690"
        },
        {
            "nombre": "Bétera",
            "longitud": "-0.458864",
            "latitud": "39.588484",
            "poblacion": "20740"
        },
        {
            "nombre": "Burjassot",
            "longitud": "-0.414986",
            "latitud": "39.510510",
            "poblacion": "38433"
        },
        {
            "nombre": "Carcaixent",
            "longitud": "-0.449682",
            "latitud": "39.121222",
            "poblacion": "21735"
        },
        {
            "nombre": "Catarroja",
            "longitud": "-0.403518",
            "latitud": "39.402738",
            "poblacion": "27035"
        },
        {
            "nombre": "Cullera",
            "longitud": "-0.255912",
            "latitud": "39.165141",
            "poblacion": "24121"
        },
        {
            "nombre": "Gandia",
            "longitud": "-0.185187",
            "latitud": "38.969022",
            "poblacion": "80020"
        },
        {
            "nombre": "Llíria",
            "longitud": "-0.594758",
            "latitud": "39.624583",
            "poblacion": "22706"
        },
        {
            "nombre": "Manises",
            "longitud": "-0.476169",
            "latitud": "39.492858",
            "poblacion": "30508"
        },
        {
            "nombre": "Mislata",
            "longitud": "-0.419307",
            "latitud": "39.476238",
            "poblacion": "43756"
        },
        {
            "nombre": "Moncada",
            "longitud": "-0.393462",
            "latitud": "39.545542",
            "poblacion": "21900"
        },
        {
            "nombre": "Oliva",
            "longitud": "-0.122678",
            "latitud": "38.919387",
            "poblacion": "28419"
        },
        {
            "nombre": "Ontinyent",
            "longitud": "-0.610547",
            "latitud": "38.821017",
            "poblacion": "37735"
        },
        {
            "nombre": "Paiporta",
            "longitud": "-0.418869",
            "latitud": "39.428447",
            "poblacion": "23519"
        },
        {
            "nombre": "Paterna",
            "longitud": "-0.440599",
            "latitud": "39.502065",
            "poblacion": "64023"
        },
        {
            "nombre": "Quart de Poblet",
            "longitud": "-0.476169",
            "latitud": "39.492858",
            "poblacion": "25499"
        },
        {
            "nombre": "Requena",
            "longitud": "-1.100322",
            "latitud": "39.487878",
            "poblacion": "21278"
        },
        {
            "nombre": "Riba-roja de Túria",
            "longitud": "-0.566718",
            "latitud": "39.545476",
            "poblacion": "20468"
        },
        {
            "nombre": "Sagunto/Sagunt",
            "longitud": "-0.231257",
            "latitud": "39.674396",
            "poblacion": "66070"
        },
        {
            "nombre": "Sueca",
            "longitud": "-0.310642",
            "latitud": "39.202636",
            "poblacion": "28908"
        },
        {
            "nombre": "Torrent",
            "longitud": "-0.465311",
            "latitud": "39.436883",
            "poblacion": "78543"
        },
        {
            "nombre": "Valencia",
            "longitud": "-0.376805",
            "latitud": "39.470239",
            "poblacion": "814208"
        },
        {
            "nombre": "Xàtiva",
            "longitud": "-0.515614",
            "latitud": "38.988869",
            "poblacion": "29386"
        },
        {
            "nombre": "Xirivella",
            "longitud": "-0.427794",
            "latitud": "39.466685",
            "poblacion": "30691"
        },
        {
            "nombre": "Almendralejo",
            "longitud": "-6.405679",
            "latitud": "38.689825",
            "poblacion": "33588"
        },
        {
            "nombre": "Badajoz",
            "longitud": "-6.970283",
            "latitud": "38.878597",
            "poblacion": "148334"
        },
        {
            "nombre": "Don Benito",
            "longitud": "-5.861752",
            "latitud": "38.954303",
            "poblacion": "35791"
        },
        {
            "nombre": "Mérida",
            "longitud": "-6.345606",
            "latitud": "38.915859",
            "poblacion": "56395"
        },
        {
            "nombre": "Villanueva de la Serena",
            "longitud": "-5.800302",
            "latitud": "38.973988",
            "poblacion": "25838"
        },
        {
            "nombre": "Cáceres",
            "longitud": "-6.370760",
            "latitud": "39.476179",
            "poblacion": "93131"
        },
        {
            "nombre": "Plasencia",
            "longitud": "-6.088251",
            "latitud": "40.030502",
            "poblacion": "41148"
        },
        {
            "nombre": "Ames",
            "longitud": "-8.633333",
            "latitud": "42.900000",
            "poblacion": "26983"
        },
        {
            "nombre": "Arteixo",
            "longitud": "-8.511387",
            "latitud": "43.304507",
            "poblacion": "29762"
        },
        {
            "nombre": "Cambre",
            "longitud": "-8.344980",
            "latitud": "43.294163",
            "poblacion": "23231"
        },
        {
            "nombre": "Carballo",
            "longitud": "-8.691041",
            "latitud": "43.212168",
            "poblacion": "30990"
        },
        {
            "nombre": "Culleredo",
            "longitud": "-8.384923",
            "latitud": "43.315841",
            "poblacion": "28227"
        },
        {
            "nombre": "Ferrol",
            "longitud": "-8.222509",
            "latitud": "43.488387",
            "poblacion": "74273"
        },
        {
            "nombre": "Narón",
            "longitud": "-8.180766",
            "latitud": "43.537052",
            "poblacion": "37712"
        },
        {
            "nombre": "Oleiros",
            "longitud": "-8.313618",
            "latitud": "43.333496",
            "poblacion": "33443"
        },
        {
            "nombre": "Ribeira",
            "longitud": "-9.023944",
            "latitud": "42.576273",
            "poblacion": "27518"
        },
        {
            "nombre": "Santiago de Compostela",
            "longitud": "-8.546303",
            "latitud": "42.880447",
            "poblacion": "95092"
        },
        {
            "nombre": "Lugo",
            "longitud": "-7.555851",
            "latitud": "43.012087",
            "poblacion": "96678"
        },
        {
            "nombre": "Ourense",
            "longitud": "-7.864641",
            "latitud": "42.340009",
            "poblacion": "107742"
        },
        {
            "nombre": "Cangas",
            "longitud": "-8.782844",
            "latitud": "42.264704",
            "poblacion": "25748"
        },
        {
            "nombre": "Lalín",
            "longitud": "-8.110957",
            "latitud": "42.661370",
            "poblacion": "21254"
        },
        {
            "nombre": "Marín",
            "longitud": "-8.699853",
            "latitud": "42.391469",
            "poblacion": "25969"
        },
        {
            "nombre": "Ponteareas",
            "longitud": "-8.502382",
            "latitud": "42.176371",
            "poblacion": "23172"
        },
        {
            "nombre": "Pontevedra",
            "longitud": "-8.648053",
            "latitud": "42.433619",
            "poblacion": "81576"
        },
        {
            "nombre": "Redondela",
            "longitud": "-8.607424",
            "latitud": "42.283786",
            "poblacion": "30001"
        },
        {
            "nombre": "Vigo",
            "longitud": "-8.712447",
            "latitud": "42.231356",
            "poblacion": "297332"
        },
        {
            "nombre": "Vilagarcía de Arousa",
            "longitud": "-8.765962",
            "latitud": "42.593869",
            "poblacion": "37576"
        },
        {
            "nombre": "Alcalá de Henares",
            "longitud": "-3.364136",
            "latitud": "40.481663",
            "poblacion": "204574"
        },
        {
            "nombre": "Alcobendas",
            "longitud": "-3.642091",
            "latitud": "40.547544",
            "poblacion": "109104"
        },
        {
            "nombre": "Alcorcón",
            "longitud": "-3.828811",
            "latitud": "40.349116",
            "poblacion": "167967"
        },
        {
            "nombre": "Algete",
            "longitud": "-3.497902",
            "latitud": "40.596423",
            "poblacion": "20204"
        },
        {
            "nombre": "Aranjuez",
            "longitud": "-3.603288",
            "latitud": "40.032093",
            "poblacion": "54055"
        },
        {
            "nombre": "Arganda del Rey",
            "longitud": "-3.438080",
            "latitud": "40.300951",
            "poblacion": "51489"
        },
        {
            "nombre": "Boadilla del Monte",
            "longitud": "-3.876991",
            "latitud": "40.405248",
            "poblacion": "43414"
        },
        {
            "nombre": "Ciempozuelos",
            "longitud": "-3.618400",
            "latitud": "40.159340",
            "poblacion": "22132"
        },
        {
            "nombre": "Collado Villalba",
            "longitud": "-4.008587",
            "latitud": "40.627256",
            "poblacion": "55027"
        },
        {
            "nombre": "Colmenar Viejo",
            "longitud": "-3.766043",
            "latitud": "40.658953",
            "poblacion": "43700"
        },
        {
            "nombre": "Coslada",
            "longitud": "-3.565464",
            "latitud": "40.425936",
            "poblacion": "90280"
        },
        {
            "nombre": "Fuenlabrada",
            "longitud": "-3.800329",
            "latitud": "40.283873",
            "poblacion": "197836"
        },
        {
            "nombre": "Galapagar",
            "longitud": "-4.003570",
            "latitud": "40.577361",
            "poblacion": "31820"
        },
        {
            "nombre": "Getafe",
            "longitud": "-3.732677",
            "latitud": "40.304976",
            "poblacion": "167164"
        },
        {
            "nombre": "Leganés",
            "longitud": "-3.758988",
            "latitud": "40.326422",
            "poblacion": "186066"
        },
        {
            "nombre": "Madrid",
            "longitud": "-3.700345",
            "latitud": "40.416691",
            "poblacion": "3255944"
        },
        {
            "nombre": "Majadahonda",
            "longitud": "-3.872304",
            "latitud": "40.472833",
            "poblacion": "68110"
        },
        {
            "nombre": "Mejorada del Campo",
            "longitud": "-3.487864",
            "latitud": "40.397008",
            "poblacion": "22488"
        },
        {
            "nombre": "Móstoles",
            "longitud": "-3.865741",
            "latitud": "40.322771",
            "poblacion": "206478"
        },
        {
            "nombre": "Navalcarnero",
            "longitud": "-4.013766",
            "latitud": "40.287811",
            "poblacion": "21584"
        },
        {
            "nombre": "Parla",
            "longitud": "-3.772741",
            "latitud": "40.237538",
            "poblacion": "115611"
        },
        {
            "nombre": "Pinto",
            "longitud": "-3.696013",
            "latitud": "40.244545",
            "poblacion": "43501"
        },
        {
            "nombre": "Pozuelo de Alarcón",
            "longitud": "-3.813062",
            "latitud": "40.435195",
            "poblacion": "82428"
        },
        {
            "nombre": "Rivas-Vaciamadrid",
            "longitud": "-3.516941",
            "latitud": "40.329697",
            "poblacion": "68405"
        },
        {
            "nombre": "San Fernando de Henares",
            "longitud": "-3.536694",
            "latitud": "40.425535",
            "poblacion": "40981"
        },
        {
            "nombre": "San Sebastián de los Reyes",
            "longitud": "-3.626394",
            "latitud": "40.547511",
            "poblacion": "75912"
        },
        {
            "nombre": "Torrejón de Ardoz",
            "longitud": "-3.479771",
            "latitud": "40.458904",
            "poblacion": "118162"
        },
        {
            "nombre": "Torrelodones",
            "longitud": "-3.929452",
            "latitud": "40.576281",
            "poblacion": "21781"
        },
        {
            "nombre": "Tres Cantos",
            "longitud": "-3.712258",
            "latitud": "40.599072",
            "poblacion": "41064"
        },
        {
            "nombre": "Valdemoro",
            "longitud": "-3.679874",
            "latitud": "40.192693",
            "poblacion": "62750"
        },
        {
            "nombre": "Villaviciosa de Odón",
            "longitud": "-3.900590",
            "latitud": "40.357102",
            "poblacion": "26475"
        },
        {
            "nombre": "Melilla",
            "longitud": "-2.938794",
            "latitud": "35.292339",
            "poblacion": "73460"
        },
        {
            "nombre": "Águilas",
            "longitud": "-1.416846",
            "latitud": "37.508171",
            "poblacion": "34533"
        },
        {
            "nombre": "Alcantarilla",
            "longitud": "-1.221850",
            "latitud": "37.981006",
            "poblacion": "41084"
        },
        {
            "nombre": "Caravaca de la Cruz",
            "longitud": "-1.866195",
            "latitud": "38.104229",
            "poblacion": "26415"
        },
        {
            "nombre": "Cartagena",
            "longitud": "-0.743525",
            "latitud": "37.615395",
            "poblacion": "211996"
        },
        {
            "nombre": "Cieza",
            "longitud": "-1.411580",
            "latitud": "38.233220",
            "poblacion": "35200"
        },
        {
            "nombre": "Jumilla",
            "longitud": "-1.164219",
            "latitud": "38.302079",
            "poblacion": "25685"
        },
        {
            "nombre": "Lorca",
            "longitud": "-1.697599",
            "latitud": "37.675267",
            "poblacion": "91906"
        },
        {
            "nombre": "Mazarrón",
            "longitud": "-1.404870",
            "latitud": "37.709604",
            "poblacion": "35221"
        },
        {
            "nombre": "Molina de Segura",
            "longitud": "-1.211235",
            "latitud": "38.051530",
            "poblacion": "64065"
        },
        {
            "nombre": "Murcia",
            "longitud": "-1.366216",
            "latitud": "38.139814",
            "poblacion": "436870"
        },
        {
            "nombre": "San Javier",
            "longitud": "-0.867187",
            "latitud": "37.649927",
            "poblacion": "31432"
        },
        {
            "nombre": "San Pedro del Pinatar",
            "longitud": "-0.777138",
            "latitud": "37.834279",
            "poblacion": "23738"
        },
        {
            "nombre": "Torre-Pacheco",
            "longitud": "-0.951624",
            "latitud": "37.741801",
            "poblacion": "31495"
        },
        {
            "nombre": "Totana",
            "longitud": "-1.404870",
            "latitud": "37.709604",
            "poblacion": "29211"
        },
        {
            "nombre": "Yecla",
            "longitud": "-0.978638",
            "latitud": "37.610958",
            "poblacion": "35025"
        },
        {
            "nombre": "Barañain",
            "longitud": "-1.685519",
            "latitud": "42.804918",
            "poblacion": "22110"
        },
        {
            "nombre": "Pamplona/Iruña",
            "longitud": "-1.644183",
            "latitud": "42.817988",
            "poblacion": "198491"
        },
        {
            "nombre": "Tudela",
            "longitud": "-1.605718",
            "latitud": "42.063880",
            "poblacion": "34717"
        },
        {
            "nombre": "Vitoria-Gasteiz",
            "longitud": "-2.671635",
            "latitud": "42.846718",
            "poblacion": "235661"
        },
        {
            "nombre": "Arrasate/Mondragón",
            "longitud": "-2.497708",
            "latitud": "43.061670",
            "poblacion": "22064"
        },
        {
            "nombre": "Donostia-San Sebastián",
            "longitud": "-1.984447",
            "latitud": "43.320812",
            "poblacion": "185357"
        },
        {
            "nombre": "Eibar",
            "longitud": "-2.473289",
            "latitud": "43.184180",
            "poblacion": "27419"
        },
        {
            "nombre": "Errenteria",
            "longitud": "-1.900896",
            "latitud": "43.311307",
            "poblacion": "38767"
        },
        {
            "nombre": "Irun",
            "longitud": "-1.789272",
            "latitud": "43.338233",
            "poblacion": "60951"
        },
        {
            "nombre": "Zarautz",
            "longitud": "-2.171588",
            "latitud": "43.280364",
            "poblacion": "22627"
        },
        {
            "nombre": "Barakaldo",
            "longitud": "-2.991667",
            "latitud": "43.297222",
            "poblacion": "98460"
        },
        {
            "nombre": "Basauri",
            "longitud": "-2.885668",
            "latitud": "43.222177",
            "poblacion": "42657"
        },
        {
            "nombre": "Bilbao",
            "longitud": "-2.923441",
            "latitud": "43.256963",
            "poblacion": "354860"
        },
        {
            "nombre": "Durango",
            "longitud": "-2.632655",
            "latitud": "43.169068",
            "poblacion": "28229"
        },
        {
            "nombre": "Erandio",
            "longitud": "-2.946418",
            "latitud": "43.307458",
            "poblacion": "24262"
        },
        {
            "nombre": "Galdakao",
            "longitud": "-2.845833",
            "latitud": "43.230556",
            "poblacion": "29226"
        },
        {
            "nombre": "Getxo",
            "longitud": "-3.006389",
            "latitud": "43.344167",
            "poblacion": "80770"
        },
        {
            "nombre": "Leioa",
            "longitud": "-2.987704",
            "latitud": "43.326097",
            "poblacion": "30079"
        },
        {
            "nombre": "Portugalete",
            "longitud": "-3.020252",
            "latitud": "43.320664",
            "poblacion": "48105"
        },
        {
            "nombre": "Santurtzi",
            "longitud": "-3.031509",
            "latitud": "43.328200",
            "poblacion": "46978"
        },
        {
            "nombre": "Sestao",
            "longitud": "-3.006940",
            "latitud": "43.309635",
            "poblacion": "29476"
        },
        {
            "nombre": "Calahorra",
            "longitud": "-1.965034",
            "latitud": "42.303719",
            "poblacion": "24787"
        },
        {
            "nombre": "Logroño",
            "longitud": "-2.449995",
            "latitud": "42.465776",
            "poblacion": "152107"
        }
    ]

}